[
    {
        "name": "Cabane des Clots (ou de Roybon)",
        "key": "cabane-des-clots-(ou-de-roybon)",
        "type": "cabane non gardée",
        "massif": "Vercors",
        "beds": 15,
        "altitude": 1450,
        "longitude": 5.58672,
        "latitude": 45.05306,
        "water": true,
        "toilets": true,
        "wood": true,
        "stove": false,
        "mattresses": 0,
        "blankets": false,
        "images": []
    },
    {
        "name": "Grange de St Roman",
        "key": "grange-de-st-roman",
        "type": "cabane non gardée",
        "massif": "Vercors",
        "beds": 40,
        "altitude": 1692,
        "longitude": 5.47036,
        "latitude": 44.77721,
        "water": false,
        "toilets": false,
        "wood": true,
        "stove": false,
        "mattresses": 0,
        "blankets": false,
        "images": []
    },
    {
        "name": "Baraque du Pison",
        "key": "baraque-du-pison",
        "type": "cabane non gardée",
        "massif": "Vercors",
        "beds": 3,
        "altitude": 1540,
        "longitude": 5.4727,
        "latitude": 44.8095,
        "water": false,
        "toilets": false,
        "wood": true,
        "stove": true,
        "mattresses": 0,
        "blankets": false,
        "images": []
    },
    {
        "name": "Baraque des Clos",
        "key": "baraque-des-clos",
        "type": "cabane non gardée",
        "massif": "Vercors",
        "beds": 8,
        "altitude": 1600,
        "longitude": 5.5859,
        "latitude": 45.0084,
        "water": false,
        "toilets": false,
        "wood": true,
        "stove": true,
        "mattresses": 0,
        "blankets": false,
        "images": []
    },
    {
        "name": "Cabane de Carrette",
        "key": "cabane-de-carrette",
        "type": "cabane non gardée",
        "massif": "Vercors",
        "beds": 5,
        "altitude": 1355,
        "longitude": 5.50669,
        "latitude": 44.98445,
        "water": false,
        "toilets": false,
        "wood": true,
        "stove": true,
        "mattresses": 0,
        "blankets": false,
        "images": []
    },
    {
        "name": "Refuge d'Ambel",
        "key": "refuge-d'ambel",
        "type": "cabane non gardée",
        "massif": "Vercors",
        "beds": 19,
        "altitude": 1222,
        "longitude": 5.2461400000000005,
        "latitude": 44.88417,
        "water": true,
        "toilets": true,
        "wood": true,
        "stove": true,
        "mattresses": 0,
        "blankets": false,
        "images": []
    },
    {
        "name": "Refuge du Serre du Satre",
        "key": "refuge-du-serre-du-satre",
        "type": "cabane non gardée",
        "massif": "Vercors",
        "beds": 14,
        "altitude": 1342,
        "longitude": 5.43856,
        "latitude": 45.10492,
        "water": false,
        "toilets": false,
        "wood": true,
        "stove": true,
        "mattresses": 0,
        "blankets": false,
        "images": []
    },
    {
        "name": "Baraque forestière de Pré Valet",
        "key": "baraque-forestiere-de-pre-valet",
        "type": "cabane non gardée",
        "massif": "Vercors",
        "beds": 10,
        "altitude": 1290,
        "longitude": 5.45964,
        "latitude": 44.96887,
        "water": false,
        "toilets": false,
        "wood": true,
        "stove": true,
        "mattresses": 0,
        "blankets": false,
        "images": []
    },
    {
        "name": "Abri de l'Essaure",
        "key": "abri-de-l'essaure",
        "type": "cabane non gardée",
        "massif": "Vercors",
        "beds": 6,
        "altitude": 1653,
        "longitude": 5.55792,
        "latitude": 44.78709,
        "water": false,
        "toilets": false,
        "wood": true,
        "stove": true,
        "mattresses": 0,
        "blankets": false,
        "description": "Cabane perdue au milieu de l'immensité des Hauts Plateaux du Vercors.",
        "accesses": [
            {
              "description": "Environ 3h de marche depuis Chichiliannee en passant par le Pas de l'Essaure."
            }
          ],
        "images": [
            "vercors/abris-de-l-essaure.jpeg"
          ]
    },
    {
        "name": "Refuge du Col de Vassieux",
        "key": "refuge-du-col-de-vassieux",
        "type": "cabane non gardée",
        "massif": "Vercors",
        "beds": 20,
        "altitude": 1363,
        "longitude": 5.35417,
        "latitude": 44.83216,
        "water": false,
        "toilets": false,
        "wood": true,
        "stove": true,
        "mattresses": 0,
        "blankets": false,
        "images": []
    },
    {
        "name": "Baraque forestière G. Guillet",
        "key": "baraque-forestiere-g.-guillet",
        "type": "cabane non gardée",
        "massif": "Vercors",
        "beds": 2,
        "altitude": 1410,
        "longitude": 5.4858,
        "latitude": 45.0031,
        "water": false,
        "toilets": false,
        "wood": true,
        "stove": false,
        "mattresses": 2,
        "blankets": false,
        "images": []
    },
    {
        "name": "Baraque Forestière du Lauset",
        "key": "baraque-forestiere-du-lauset",
        "type": "cabane non gardée",
        "massif": "Vercors",
        "beds": 6,
        "altitude": 1243,
        "longitude": 5.3538,
        "latitude": 44.8541,
        "water": true,
        "toilets": false,
        "wood": true,
        "stove": false,
        "mattresses": 2,
        "blankets": false,
        "images": []
    },
    {
        "name": "Cabane de Nave",
        "key": "cabane-de-nave",
        "type": "cabane non gardée",
        "massif": "Vercors",
        "beds": 20,
        "altitude": 1495,
        "longitude": 5.5396,
        "latitude": 45.2217,
        "water": true,
        "toilets": false,
        "wood": true,
        "stove": true,
        "mattresses": 0,
        "blankets": false,
        "images": []
    },
    {
        "name": "Bergerie de Laval d'Aix",
        "key": "bergerie-de-laval-d'aix",
        "type": "cabane non gardée",
        "massif": "Vercors",
        "beds": 5,
        "altitude": 1920,
        "longitude": 5.4655000000000005,
        "latitude": 44.7575,
        "water": false,
        "toilets": false,
        "wood": false,
        "stove": false,
        "mattresses": 5,
        "blankets": false,
        "images": []
    },
    {
        "name": "Refuge du Grand Couloir (Pte Moucherolle)",
        "key": "refuge-du-grand-couloir-(pte-moucherolle)",
        "type": "cabane non gardée",
        "massif": "Vercors",
        "beds": 3,
        "altitude": 2050,
        "longitude": 5.5532079935,
        "latitude": 45.0015422242,
        "water": false,
        "toilets": false,
        "wood": false,
        "stove": true,
        "mattresses": 3,
        "blankets": false,
        "images": []
    },
    {
        "name": "Refuge de Tubanet",
        "key": "refuge-de-tubanet",
        "type": "cabane non gardée",
        "massif": "Vercors",
        "beds": 21,
        "altitude": 1300,
        "longitude": 5.27721,
        "latitude": 44.88841,
        "water": false,
        "toilets": true,
        "wood": true,
        "stove": true,
        "mattresses": 0,
        "blankets": false,
        "images": []
    },
    {
        "name": "Abri de la Goulandière",
        "key": "abri-de-la-goulandiere",
        "type": "cabane non gardée",
        "massif": "Vercors",
        "beds": 10,
        "altitude": 1015,
        "longitude": 5.4319,
        "latitude": 45.0754,
        "water": false,
        "toilets": false,
        "wood": true,
        "stove": true,
        "mattresses": 3,
        "blankets": false,
        "images": []
    },
    {
        "name": "Le Château",
        "key": "le-chateau",
        "type": "cabane non gardée",
        "massif": "Vercors",
        "beds": 10,
        "altitude": 1030,
        "longitude": 5.45567,
        "latitude": 44.80958,
        "water": true,
        "toilets": false,
        "wood": true,
        "stove": false,
        "mattresses": 0,
        "blankets": false,
        "images": []
    },
    {
        "name": "Cabane de Châtillon",
        "key": "cabane-de-chatillon",
        "type": "cabane non gardée",
        "massif": "Vercors",
        "beds": 10,
        "altitude": 1774,
        "longitude": 5.4902,
        "latitude": 44.7276,
        "water": true,
        "toilets": false,
        "wood": false,
        "stove": true,
        "mattresses": 0,
        "blankets": false,
        "images": []
    },
    {
        "name": "Baraque forestière de la Plaine des Trois Frères",
        "key": "baraque-forestiere-de-la-plaine-des-trois-freres",
        "type": "cabane non gardée",
        "massif": "Vercors",
        "beds": 3,
        "altitude": 1223,
        "longitude": 5.36615,
        "latitude": 44.84351,
        "water": true,
        "toilets": false,
        "wood": true,
        "stove": true,
        "mattresses": 0,
        "blankets": false,
        "images": []
    },
    {
        "name": "Habert des Ramées",
        "key": "habert-des-ramees",
        "type": "cabane non gardée",
        "massif": "Vercors",
        "beds": 8,
        "altitude": 1620,
        "longitude": 5.62296,
        "latitude": 45.12756,
        "water": false,
        "toilets": false,
        "wood": true,
        "stove": false,
        "mattresses": 0,
        "blankets": false,
        "images": []
    },
    {
        "name": "Cabane de Pré Peyret",
        "key": "cabane-de-pre-peyret",
        "type": "cabane non gardée",
        "massif": "Vercors",
        "beds": 15,
        "altitude": 1600,
        "longitude": 5.4828,
        "latitude": 44.82698,
        "water": true,
        "toilets": false,
        "wood": true,
        "stove": true,
        "mattresses": 0,
        "blankets": false,
        "description": "Cabane exceptionnellement située au beau milieu de la réserve des Hauts Plateaux du Vercors.",
        "accesses": [
            {
              "description": "Environ 2h de marche depuis le col du Rousset."
            }
          ],
        "images": [
            "vercors/cabane-pre-peyret.jpeg"
        ]
    },
    {
        "name": "Cabane PNRV des Chaumailloux",
        "key": "cabane-pnrv-des-chaumailloux",
        "type": "cabane non gardée",
        "massif": "Vercors",
        "beds": 19,
        "altitude": 1665,
        "longitude": 5.51194,
        "latitude": 44.80543,
        "water": true,
        "toilets": false,
        "wood": true,
        "stove": true,
        "mattresses": 0,
        "blankets": false,
        "description": "Grande cabane avec vue inégalable sur le Mont Aiguille.",
        "accesses": [
            {
              "description": "Environ 3h de marche depuis le hammeau de la Richardière en passant par le Pas de l'Aiguille."
            }
          ],
        "images": [
            "vercors/cabane-des-chaumailloux.jpeg"
          ]
    },
    {
        "name": "2ème Borie de Chamousset",
        "key": "2eme-borie-de-chamousset",
        "type": "cabane non gardée",
        "massif": "Vercors",
        "beds": 1,
        "altitude": 1842,
        "longitude": 5.53338,
        "latitude": 44.78807,
        "water": false,
        "toilets": false,
        "wood": false,
        "stove": false,
        "mattresses": 0,
        "blankets": false,
        "images": []
    },
    {
        "name": "Cabane Bertrand",
        "key": "cabane-bertrand",
        "type": "cabane non gardée",
        "massif": "Vercors",
        "beds": 4,
        "altitude": 1460,
        "longitude": 5.58253,
        "latitude": 44.897710000000004,
        "water": false,
        "toilets": false,
        "wood": true,
        "stove": false,
        "mattresses": 0,
        "blankets": false,
        "images": []
    },
    {
        "name": "Cabane Émile Locatelli",
        "key": "cabane-emile-locatelli",
        "type": "cabane non gardée",
        "massif": "Vercors",
        "beds": 2,
        "altitude": 1175,
        "longitude": 5.470071,
        "latitude": 45.13543,
        "water": false,
        "toilets": false,
        "wood": true,
        "stove": false,
        "mattresses": 0,
        "blankets": true,
        "images": []
    },
    {
        "name": "Refuge de la Jasse du Play",
        "key": "refuge-de-la-jasse-du-play",
        "type": "cabane non gardée",
        "massif": "Vercors",
        "beds": 10,
        "altitude": 1629,
        "longitude": 5.5021,
        "latitude": 44.91067,
        "water": true,
        "toilets": false,
        "wood": true,
        "stove": true,
        "mattresses": 0,
        "blankets": false,
        "images": []
    },
    {
        "name": "Refuge de Crobache",
        "key": "refuge-de-crobache",
        "type": "cabane non gardée",
        "massif": "Vercors",
        "beds": 12,
        "altitude": 1420,
        "longitude": 5.36053,
        "latitude": 44.93518,
        "water": false,
        "toilets": false,
        "wood": true,
        "stove": true,
        "mattresses": 0,
        "blankets": false,
        "images": []
    },
    {
        "name": "Refuge de Tiolache du Milieu",
        "key": "refuge-de-tiolache-du-milieu",
        "type": "cabane non gardée",
        "massif": "Vercors",
        "beds": 2,
        "altitude": 1560,
        "longitude": 5.4902,
        "latitude": 44.9258,
        "water": false,
        "toilets": false,
        "wood": true,
        "stove": true,
        "mattresses": 0,
        "blankets": false,
        "images": []
    },
    {
        "name": "Refuge des Feuilles",
        "key": "refuge-des-feuilles",
        "type": "cabane non gardée",
        "massif": "Vercors",
        "beds": 15,
        "altitude": 1210,
        "longitude": 5.50863,
        "latitude": 45.13346,
        "water": true,
        "toilets": false,
        "wood": true,
        "stove": false,
        "mattresses": 15,
        "blankets": false,
        "images": []
    },
    {
        "name": "Cabane du Serre du Play",
        "key": "cabane-du-serre-du-play",
        "type": "cabane non gardée",
        "massif": "Vercors",
        "beds": 4,
        "altitude": 1663,
        "longitude": 5.52736,
        "latitude": 44.99139,
        "water": false,
        "toilets": false,
        "wood": true,
        "stove": false,
        "mattresses": 4,
        "blankets": false,
        "images": []
    },
    {
        "name": "Bergerie de Jasneuf",
        "key": "bergerie-de-jasneuf",
        "type": "cabane non gardée",
        "massif": "Vercors",
        "beds": 4,
        "altitude": 1627,
        "longitude": 5.49525,
        "latitude": 44.80191,
        "water": false,
        "toilets": false,
        "wood": false,
        "stove": false,
        "mattresses": 0,
        "blankets": false,
        "images": []
    },
    {
        "name": "Abri de la Peyrouse",
        "key": "abri-de-la-peyrouse",
        "type": "cabane non gardée",
        "massif": "Vercors",
        "beds": 2,
        "altitude": 1575,
        "longitude": 5.52703,
        "latitude": 44.94615,
        "water": false,
        "toilets": false,
        "wood": true,
        "stove": false,
        "mattresses": 0,
        "blankets": false,
        "images": []
    },
    {
        "name": "Cabane des Aiguillettes",
        "key": "cabane-des-aiguillettes",
        "type": "cabane non gardée",
        "massif": "Vercors",
        "beds": 4,
        "altitude": 1880,
        "longitude": 5.52026,
        "latitude": 44.85368,
        "water": true,
        "toilets": false,
        "wood": false,
        "stove": false,
        "mattresses": 0,
        "blankets": false,
        "description": "Petite cabane située au pied du point culminant du Vercors, le Grand Veymont.",
        "accesses": [
            {
              "description": "Environ 4h de marche depuis le col de Rousset."
            },
            {
              "description": "Environ 3h de marche depuis le hammeau de la Richardière en passant par le Pas de la Selle."
            }
          ],
        "images": [
            "vercors/cabane-des-aiguillettes.jpeg",
            "vercors/cabane-des-aiguillettes-hiver.jpg"
          ]
    },
    {
        "name": "1er Borie de Chamousset",
        "key": "1er-borie-de-chamousset",
        "type": "cabane non gardée",
        "massif": "Vercors",
        "beds": 1,
        "altitude": 1850,
        "longitude": 5.53293,
        "latitude": 44.79369,
        "water": false,
        "toilets": false,
        "wood": false,
        "stove": false,
        "mattresses": 0,
        "blankets": false,
        "images": []
    }
]